{
"type": "FeatureCollection",
"crs": { "type": "name", "properties": { "name": "urn:ogc:def:crs:OGC:1.3:CRS84" } },
                                                                                
"features": [
{ "type": "Feature", "properties": { "OBJECTID": 155, "Name": "Purdy Fire Station", "Type": "Ballot Deposit Site", "Address": "5210 144th St NW", "City": "Gig Harbor", "Notes": null, "Open_Sched": "Open 24\/7 starting July 14, 2017", "Close_Sche": "Closes at 8:00 p.m. on August 1, 2017", "Active": 0, "Status": "Inactive", "Zip": "98332", "Phone": null, "Picture": "http:\/\/www.co.pierce.wa.us\/DocumentCenter\/View\/21782" }, "geometry": { "type": "Point", "coordinates": [ -122.60764899288026, 47.388740850481867 ] } },
{ "type": "Feature", "properties": { "OBJECTID": 156, "Name": "Barney's Corner", "Type": "Ballot Deposit Site", "Address": "40512 Meridian E", "City": "Eatonville", "Notes": null, "Open_Sched": "Open 24\/7 starting July 14, 2017", "Close_Sche": "Closes at 8:00 p.m. on August 1, 2017", "Active": 0, "Status": "Inactive", "Zip": "98328", "Phone": null, "Picture": "http:\/\/www.co.pierce.wa.us\/DocumentCenter\/View\/21768" }, "geometry": { "type": "Point", "coordinates": [ -122.30181496817303, 46.88883731251331 ] } },
{ "type": "Feature", "properties": { "OBJECTID": 157, "Name": "South Hill Library", "Type": "Ballot Deposit Site", "Address": "15420 Meridian E", "City": "Puyallup", "Notes": null, "Open_Sched": "Open 24\/7 starting July 14, 2017", "Close_Sche": "Closes at 8:00 p.m. on August 1, 2017", "Active": 0, "Status": "Inactive", "Zip": "98375", "Phone": null, "Picture": "http:\/\/www.co.pierce.wa.us\/DocumentCenter\/View\/21786" }, "geometry": { "type": "Point", "coordinates": [ -122.29433345480716, 47.116034718505958 ] } },
{ "type": "Feature", "properties": { "OBJECTID": 158, "Name": "Roy Y Park and Ride", "Type": "Ballot Deposit Site", "Address": "SR 507 & Pacific Ave S", "City": "Spanaway", "Notes": null, "Open_Sched": "Open 24\/7 starting July 14, 2017", "Close_Sche": "Closes at 8:00 p.m. on August 1, 2017", "Active": 0, "Status": "Inactive", "Zip": "98387", "Phone": null, "Picture": "http:\/\/www.co.pierce.wa.us\/DocumentCenter\/View\/21785" }, "geometry": { "type": "Point", "coordinates": [ -122.43448989381106, 47.082799517323309 ] } },
{ "type": "Feature", "properties": { "OBJECTID": 159, "Name": "Gig Harbor Fire Station", "Type": "Ballot Deposit Site", "Address": "6711 Kimball Dr", "City": "Gig Harbor", "Notes": null, "Open_Sched": "Open 24\/7 starting July 14, 2017", "Close_Sche": "Closes at 8:00 p.m. on August 1, 2017", "Active": 0, "Status": "Inactive", "Zip": "98335", "Phone": null, "Picture": "http:\/\/www.co.pierce.wa.us\/DocumentCenter\/View\/21774" }, "geometry": { "type": "Point", "coordinates": [ -122.58647699509538, 47.319267848004046 ] } },
{ "type": "Feature", "properties": { "OBJECTID": 160, "Name": "Pierce County Annex", "Type": "Ballot Deposit Site", "Address": "2401 S 35th St", "City": "Tacoma", "Notes": null, "Open_Sched": "Open 24\/7 starting July 14, 2017", "Close_Sche": "Closes at 8:00 p.m. on August 1, 2017", "Active": 0, "Status": "Inactive", "Zip": "98409", "Phone": null, "Picture": "http:\/\/www.co.pierce.wa.us\/DocumentCenter\/View\/21767" }, "geometry": { "type": "Point", "coordinates": [ -122.46832310828088, 47.228842083845251 ] } },
{ "type": "Feature", "properties": { "OBJECTID": 161, "Name": "Steilacoom Library", "Type": "Ballot Deposit Site", "Address": "2950 Steilacoom Blvd", "City": "Steilacoom", "Notes": null, "Open_Sched": "Open 24\/7 starting July 14, 2017", "Close_Sche": "Closes at 8:00 p.m. on August 1, 2017", "Active": 0, "Status": "Inactive", "Zip": "98388", "Phone": null, "Picture": "http:\/\/www.co.pierce.wa.us\/DocumentCenter\/View\/21787" }, "geometry": { "type": "Point", "coordinates": [ -122.57881723205939, 47.176495160964166 ] } },
{ "type": "Feature", "properties": { "OBJECTID": 162, "Name": "Tacoma Dome Park and Ride", "Type": "Ballot Deposit Site", "Address": "610 Puyallup Ave E", "City": "Tacoma", "Notes": null, "Open_Sched": "Open 24\/7 starting July 14, 2017", "Close_Sche": "Closes at 8:00 p.m. on August 1, 2017", "Active": 0, "Status": "Inactive", "Zip": "98421", "Phone": null, "Picture": "http:\/\/www.co.pierce.wa.us\/DocumentCenter\/View\/21791" }, "geometry": { "type": "Point", "coordinates": [ -122.42626383557634, 47.240797423956806 ] } },
{ "type": "Feature", "properties": { "OBJECTID": 163, "Name": "Lakewood (SR 512) Park and Ride", "Type": "Ballot Deposit Site", "Address": "10417 South Tacoma Way", "City": "Lakewood", "Notes": null, "Open_Sched": "Open 24\/7 starting July 14, 2017", "Close_Sche": "Closes at 8:00 p.m. on August 1, 2017", "Active": 0, "Status": "Inactive", "Zip": "98499", "Phone": null, "Picture": "http:\/\/www.co.pierce.wa.us\/DocumentCenter\/View\/21778" }, "geometry": { "type": "Point", "coordinates": [ -122.48316661463338, 47.161421950180817 ] } },
{ "type": "Feature", "properties": { "OBJECTID": 164, "Name": "Bonney Lake (South) Park and Ride", "Type": "Ballot Deposit Site", "Address": "Sky Island Dr E & 184th Ave E", "City": "Bonney Lake", "Notes": null, "Open_Sched": "Open 24\/7 starting July 14, 2017", "Close_Sche": "Closes at 8:00 p.m. on August 1, 2017", "Active": 0, "Status": "Inactive", "Zip": "98391", "Phone": null, "Picture": "http:\/\/www.co.pierce.wa.us\/DocumentCenter\/View\/21778" }, "geometry": { "type": "Point", "coordinates": [ -122.18582053146783, 47.173791977684296 ] } },
{ "type": "Feature", "properties": { "OBJECTID": 165, "Name": "West Pierce Fire & Rescue", "Type": "Ballot Deposit Site", "Address": "3631 Drexler Dr W", "City": "University Place", "Notes": null, "Open_Sched": "Open 24\/7 starting July 14, 2017", "Close_Sche": "Closes at 8:00 p.m. on August 1, 2017", "Active": 0, "Status": "Inactive", "Zip": "98466", "Phone": null, "Picture": "http:\/\/www.co.pierce.wa.us\/DocumentCenter\/View\/21792" }, "geometry": { "type": "Point", "coordinates": [ -122.53523091147741, 47.225069693557188 ] } },
{ "type": "Feature", "properties": { "OBJECTID": 166, "Name": "72nd Street Transit Center", "Type": "Ballot Deposit Site", "Address": "1319 E 72nd St", "City": "Tacoma", "Notes": null, "Open_Sched": "Open 24\/7 starting July 14, 2017", "Close_Sche": "Closes at 8:00 p.m. on August 1, 2017", "Active": 0, "Status": "Inactive", "Zip": "98404", "Phone": null, "Picture": "http:\/\/www.co.pierce.wa.us\/DocumentCenter\/View\/21765" }, "geometry": { "type": "Point", "coordinates": [ -122.41131697057145, 47.192543521060621 ] } },
{ "type": "Feature", "properties": { "OBJECTID": 167, "Name": "NE Police Substation", "Type": "Ballot Deposit Site", "Address": "4731 Norpoint Way NE", "City": "Tacoma", "Notes": null, "Open_Sched": "Open 24\/7 starting July 14, 2017", "Close_Sche": "Closes at 8:00 p.m. on August 1, 2017", "Active": 0, "Status": "Inactive", "Zip": "98422", "Phone": null, "Picture": "http:\/\/www.co.pierce.wa.us\/DocumentCenter\/View\/21779" }, "geometry": { "type": "Point", "coordinates": [ -122.40625731510639, 47.300338008017306 ] } },
{ "type": "Feature", "properties": { "OBJECTID": 168, "Name": "Parkland\/Spanaway Library", "Type": "Ballot Deposit Site", "Address": "13718 Pacific Ave S", "City": "Tacoma", "Notes": null, "Open_Sched": "Open 24\/7 starting July 14, 2017", "Close_Sche": "Closes at 8:00 p.m. on August 1, 2017", "Active": 0, "Status": "Inactive", "Zip": "98444", "Phone": null, "Picture": "http:\/\/www.co.pierce.wa.us\/DocumentCenter\/View\/21780" }, "geometry": { "type": "Point", "coordinates": [ -122.43642085148373, 47.132335589316121 ] } },
{ "type": "Feature", "properties": { "OBJECTID": 169, "Name": "Edgewood City Hall", "Type": "Ballot Deposit Site", "Address": "2224 104th Ave E", "City": "Edgewood", "Notes": null, "Open_Sched": "Open 24\/7 starting July 14, 2017", "Close_Sche": "Closes at 8:00 p.m. on August 1, 2017", "Active": 0, "Status": "Inactive", "Zip": "98372", "Phone": null, "Picture": "http:\/\/www.co.pierce.wa.us\/DocumentCenter\/View\/21772" }, "geometry": { "type": "Point", "coordinates": [ -122.29129146992746, 47.236383002966676 ] } },
{ "type": "Feature", "properties": { "OBJECTID": 170, "Name": "Fife City Hall", "Type": "Ballot Deposit Site", "Address": "5411 23rd St E", "City": "Fife", "Notes": null, "Open_Sched": "Open 24\/7 starting July 14, 2017", "Close_Sche": "Closes at 8:00 p.m. on August 1, 2017", "Active": 0, "Status": "Inactive", "Zip": "98424", "Phone": null, "Picture": "http:\/\/www.co.pierce.wa.us\/DocumentCenter\/View\/29549" }, "geometry": { "type": "Point", "coordinates": [ -122.35640142935344, 47.237040400354552 ] } },
{ "type": "Feature", "properties": { "OBJECTID": 171, "Name": "Sumner Library", "Type": "Ballot Deposit Site", "Address": "1116 Fryer Ave", "City": "Sumner", "Notes": null, "Open_Sched": "Open 24\/7 starting July 14, 2017", "Close_Sche": "Closes at 8:00 p.m. on August 1, 2017", "Active": 0, "Status": "Inactive", "Zip": "98390", "Phone": null, "Picture": "http:\/\/www.co.pierce.wa.us\/DocumentCenter\/View\/21788" }, "geometry": { "type": "Point", "coordinates": [ -122.24400875304309, 47.204877018460181 ] } },
{ "type": "Feature", "properties": { "OBJECTID": 172, "Name": "Puyallup Library", "Type": "Ballot Deposit Site", "Address": "324 South Meridian", "City": "Puyallup", "Notes": null, "Open_Sched": "Open 24\/7 starting July 14, 2017", "Close_Sche": "Closes at 8:00 p.m. on August 1, 2017", "Active": 0, "Status": "Inactive", "Zip": "98371", "Phone": null, "Picture": "http:\/\/www.co.pierce.wa.us\/DocumentCenter\/View\/21797" }, "geometry": { "type": "Point", "coordinates": [ -122.29584348089946, 47.189269747592469 ] } },
{ "type": "Feature", "properties": { "OBJECTID": 173, "Name": "DuPont Ross Plaza", "Type": "Ballot Deposit Site", "Address": "1500 Wilmington Dr", "City": "DuPont", "Notes": null, "Open_Sched": "Open 24\/7 starting July 14, 2017", "Close_Sche": "Closes at 8:00 p.m. on August 1, 2017", "Active": 0, "Status": "Inactive", "Zip": "98327", "Phone": null, "Picture": "http:\/\/www.co.pierce.wa.us\/DocumentCenter\/View\/21784" }, "geometry": { "type": "Point", "coordinates": [ -122.64252643723445, 47.091391070803404 ] } },
{ "type": "Feature", "properties": { "OBJECTID": 174, "Name": "Lakewood City Hall", "Type": "Ballot Deposit Site", "Address": "6000 Main St SW", "City": "Lakewood", "Notes": null, "Open_Sched": "Open 24\/7 starting July 14, 2017", "Close_Sche": "Closes at 8:00 p.m. on August 1, 2017", "Active": 0, "Status": "Inactive", "Zip": "98499", "Phone": null, "Picture": "http:\/\/www.co.pierce.wa.us\/DocumentCenter\/View\/21777" }, "geometry": { "type": "Point", "coordinates": [ -122.51587878647312, 47.161164566517634 ] } },
{ "type": "Feature", "properties": { "OBJECTID": 175, "Name": "Kandle Park Police Substation", "Type": "Ballot Deposit Site", "Address": "5140 N 26th St", "City": "Tacoma", "Notes": null, "Open_Sched": "Open 24\/7 starting July 14, 2017", "Close_Sche": "Closes at 8:00 p.m. on August 1, 2017", "Active": 0, "Status": "Inactive", "Zip": "98407", "Phone": null, "Picture": "http:\/\/www.co.pierce.wa.us\/DocumentCenter\/View\/21775" }, "geometry": { "type": "Point", "coordinates": [ -122.50812163301393, 47.270206045936874 ] } },
{ "type": "Feature", "properties": { "OBJECTID": 176, "Name": "Anderson Island Park and Ride", "Type": "Ballot Deposit Site", "Address": "Yoman Rd", "City": "Anderson Island", "Notes": "near Villa Beach Road", "Open_Sched": "Open 24\/7 starting July 14, 2017", "Close_Sche": "Closes at 8:00 p.m. on August 1, 2017", "Active": 0, "Status": "Inactive", "Zip": "98303", "Phone": null, "Picture": "http:\/\/www.co.pierce.wa.us\/DocumentCenter\/View\/21766" }, "geometry": { "type": "Point", "coordinates": [ -122.68012553595483, 47.177141526729407 ] } },
{ "type": "Feature", "properties": { "OBJECTID": 177, "Name": "Tacoma Area Coalition of Individuals with Disabilities (TACID)", "Type": "Ballot Deposit Site", "Address": "6315 S 19th St", "City": "Tacoma", "Notes": null, "Open_Sched": "Open 24\/7 starting July 14, 2017", "Close_Sche": "Closes at 8:00 p.m. on August 1, 2017", "Active": 0, "Status": "Inactive", "Zip": "98466", "Phone": null, "Picture": "http:\/\/www.co.pierce.wa.us\/DocumentCenter\/View\/21790" }, "geometry": { "type": "Point", "coordinates": [ -122.52208107173104, 47.243331024342197 ] } },
{ "type": "Feature", "properties": { "OBJECTID": 178, "Name": "Point Fosdick Safeway", "Type": "Ballot Deposit Site", "Address": "4811 Pt Fosdick Dr NW", "City": "Gig Harbor", "Notes": null, "Open_Sched": "Open 24\/7 starting July 14, 2017", "Close_Sche": "Closes at 8:00 p.m. on August 1, 2017", "Active": 0, "Status": "Inactive", "Zip": "98335", "Phone": null, "Picture": "http:\/\/www.co.pierce.wa.us\/DocumentCenter\/View\/21781" }, "geometry": { "type": "Point", "coordinates": [ -122.57729856908281, 47.301738422975923 ] } },
{ "type": "Feature", "properties": { "OBJECTID": 179, "Name": "Key Center Fire Station", "Type": "Ballot Deposit Site", "Address": "8911 Key Peninsula Hwy, KPN", "City": "Lakebay", "Notes": null, "Open_Sched": "Open 24\/7 starting July 14, 2017", "Close_Sche": "Closes at 8:00 p.m. on August 1, 2017", "Active": 0, "Status": "Inactive", "Zip": "98349", "Phone": null, "Picture": "http:\/\/www.co.pierce.wa.us\/DocumentCenter\/View\/21776" }, "geometry": { "type": "Point", "coordinates": [ -122.74594039388646, 47.338885914285619 ] } },
{ "type": "Feature", "properties": { "OBJECTID": 180, "Name": "Clover Park Technical College - Rotunda Bldg 3", "Type": "Voting Center", "Address": "4500 Steilacoom Blvd SW", "City": "Lakewood", "Notes": "Enter from Lakeview Ave SW", "Open_Sched": "Not Open", "Close_Sche": "Not Open", "Active": 0, "Status": "Inactive", "Zip": "98499", "Phone": null, "Picture": "http:\/\/www.co.pierce.wa.us\/DocumentCenter\/View\/21793" }, "geometry": { "type": "Point", "coordinates": [ -122.49403341688691, 47.173916002404205 ] } },
{ "type": "Feature", "properties": { "OBJECTID": 181, "Name": "Gig Harbor Civic Center", "Type": "Voting Center", "Address": "3510 Grandview St", "City": "Gig Harbor", "Notes": null, "Open_Sched": "Open August 1, 2017 Only, 7:00 a.m. to 8:00 p.m.", "Close_Sche": "Not Open", "Active": 0, "Status": "Inactive", "Zip": "98335", "Phone": null, "Picture": "http:\/\/www.co.pierce.wa.us\/DocumentCenter\/View\/21795" }, "geometry": { "type": "Point", "coordinates": [ -122.58527919853724, 47.322504144752031 ] } },
{ "type": "Feature", "properties": { "OBJECTID": 182, "Name": "Pierce County Maintenence Facility", "Type": "Voting Center", "Address": "4812 196th St E", "City": "Spanaway", "Notes": "196th St and Canyon Rd", "Open_Sched": "Not Open", "Close_Sche": "Not Open", "Active": 0, "Status": "Inactive", "Zip": "98387", "Phone": null, "Picture": "http:\/\/www.co.pierce.wa.us\/DocumentCenter\/View\/21796" }, "geometry": { "type": "Point", "coordinates": [ -122.36506018166186, 47.077508533725279 ] } },
{ "type": "Feature", "properties": { "OBJECTID": 183, "Name": "Central District", "Type": "Ballot Deposit Site", "Address": "902 South L Street", "City": "Tacoma", "Notes": null, "Open_Sched": "Open 24\/7 starting July 14, 2017", "Close_Sche": "Closes at 8:00 p.m. on August 1, 2017", "Active": 0, "Status": "Inactive", "Zip": "98405", "Phone": null, "Picture": "http:\/\/www.co.pierce.wa.us\/DocumentCenter\/View\/26767" }, "geometry": { "type": "Point", "coordinates": [ -122.45385334948696, 47.253378764835638 ] } },
{ "type": "Feature", "properties": { "OBJECTID": 184, "Name": "Orting Public Safety Building", "Type": "Ballot Deposit Site", "Address": "401 Washington Ave SE", "City": "Orting", "Notes": null, "Open_Sched": "Open 24\/7 starting July 14, 2017", "Close_Sche": "Closes at 8:00 p.m. on August 1, 2017", "Active": 0, "Status": "Inactive", "Zip": "98360", "Phone": null, "Picture": "http:\/\/www.co.pierce.wa.us\/DocumentCenter\/View\/30570" }, "geometry": { "type": "Point", "coordinates": [ -122.20019647036281, 47.09524460135313 ] } },
{ "type": "Feature", "properties": { "OBJECTID": 185, "Name": "Graham Fire and Rescue", "Type": "Ballot Deposit Site", "Address": "10012 187th St E", "City": "Puyallup", "Notes": null, "Open_Sched": "Open 24\/7 starting July 14, 2017", "Close_Sche": "Closes at 8:00 p.m. on August 1, 2017", "Active": 0, "Status": "Inactive", "Zip": "98375", "Phone": null, "Picture": "http:\/\/www.co.pierce.wa.us\/DocumentCenter\/View\/30569" }, "geometry": { "type": "Point", "coordinates": [ -122.29565010875568, 47.08606885130051 ] } },
{ "type": "Feature", "properties": { "OBJECTID": 186, "Name": "Roy City Hall", "Type": "Ballot Deposit Site", "Address": "216 McNaught Rd S", "City": "Roy", "Notes": null, "Open_Sched": "Open 24\/7 starting July 14, 2017", "Close_Sche": "Closes at 8:00 p.m. on August 1, 2017", "Active": 0, "Status": "Inactive", "Zip": "98580", "Phone": null, "Picture": "http:\/\/www.co.pierce.wa.us\/DocumentCenter\/View\/37447" }, "geometry": { "type": "Point", "coordinates": [ -122.54260821189808, 47.003063921136452 ] } },
{ "type": "Feature", "properties": { "OBJECTID": 187, "Name": "Tacoma Area Coalition of Individuals with Disabilities", "Type": "Voting Center", "Address": "6315 S 19th St", "City": "Tacoma", "Notes": null, "Open_Sched": "Open August 1, 2017 Only, 7:00 a.m. to 8:00 p.m.", "Close_Sche": "Not Open", "Active": 0, "Status": "Inactive", "Zip": "98466", "Phone": null, "Picture": "http:\/\/www.co.pierce.wa.us\/DocumentCenter\/View\/21790" }, "geometry": { "type": "Point", "coordinates": [ -122.52148199985318, 47.24359599917846 ] } },
{ "type": "Feature", "properties": { "OBJECTID": 188, "Name": "Pierce County Election Center", "Type": "Voting Center", "Address": "2501 S 35th St", "City": "Tacoma", "Notes": null, "Open_Sched": "Open August 1, 2017 Only, 7:00 a.m. to 8:00 p.m.", "Close_Sche": "Not Open", "Active": 0, "Status": "Inactive", "Zip": "98409", "Phone": null, "Picture": "http:\/\/www.co.pierce.wa.us\/DocumentCenter\/View\/21794" }, "geometry": { "type": "Point", "coordinates": [ -122.47019299990804, 47.229131998968036 ] } },
{ "type": "Feature", "properties": { "OBJECTID": 189, "Name": "Puyallup Library", "Type": "Voting Center", "Address": "324 S Meridian", "City": "Puyallup", "Notes": null, "Open_Sched": "Open August 1, 2017 Only, 7:00 a.m. to 8:00 p.m.", "Close_Sche": "Not Open", "Active": 0, "Status": "Inactive", "Zip": "98371", "Phone": null, "Picture": "http:\/\/www.co.pierce.wa.us\/DocumentCenter\/View\/21797" }, "geometry": { "type": "Point", "coordinates": [ -122.29533200010859, 47.18978799894797 ] } },
{ "type": "Feature", "properties": { "OBJECTID": 190, "Name": "Community Healthcare at Salishan", "Type": "Ballot Deposit Site", "Address": "1708 E 44th St", "City": "Tacoma", "Notes": null, "Open_Sched": "Open 24\/7 starting July 14, 2017", "Close_Sche": "Closes at 8:00 p.m. on August 1, 2017", "Active": 0, "Status": "Inactive", "Zip": "98404", "Phone": null, "Picture": "http:\/\/www.co.pierce.wa.us\/DocumentCenter\/View\/42115" }, "geometry": { "type": "Point", "coordinates": [ -122.40540099993932, 47.217284999139586 ] } },
{ "type": "Feature", "properties": { "OBJECTID": 191, "Name": "Tillicum Community Center", "Type": "Ballot Deposit Site", "Address": "14916 Washington Ave S", "City": "Lakewood", "Notes": null, "Open_Sched": "Open 24\/7 starting July 14, 2017", "Close_Sche": "Closes at 8:00 p.m. on August 1, 2017", "Active": 0, "Status": "Inactive", "Zip": "98489", "Phone": null, "Picture": "http:\/\/www.co.pierce.wa.us\/DocumentCenter\/View\/63275" }, "geometry": { "type": "Point", "coordinates": [ -122.5540166882208, 47.123612813498227 ] } },
{ "type": "Feature", "properties": { "OBJECTID": 192, "Name": "Wapato Park", "Type": "Ballot Deposit Site", "Address": "1501 S 72nd St", "City": "Tacoma", "Notes": null, "Open_Sched": "Open 24\/7 starting July 14, 2017", "Close_Sche": "Closes at 8:00 p.m. on August 1, 2017", "Active": 0, "Status": "Inactive", "Zip": "98408", "Phone": null, "Picture": "http:\/\/www.co.pierce.wa.us\/DocumentCenter\/View\/63247" }, "geometry": { "type": "Point", "coordinates": [ -122.45491500990258, 47.192175900699105 ] } },
{ "type": "Feature", "properties": { "OBJECTID": 193, "Name": "Summit Library", "Type": "Ballot Deposit Site", "Address": "5107 112th St E", "City": "Tacoma", "Notes": null, "Open_Sched": "Open 24\/7 starting July 14, 2017", "Close_Sche": "Closes at 8:00 p.m. on August 1, 2017", "Active": 0, "Status": "Inactive", "Zip": "98446", "Phone": null, "Picture": "http:\/\/www.co.pierce.wa.us\/DocumentCenter\/View\/63277" }, "geometry": { "type": "Point", "coordinates": [ -122.36072262313857, 47.155237257062929 ] } },
{ "type": "Feature", "properties": { "OBJECTID": 194, "Name": "Buckley Library", "Type": "Ballot Deposit Site", "Address": "123 S River Rd", "City": "Buckley", "Notes": null, "Open_Sched": "Open 24\/7 starting July 14, 2017", "Close_Sche": "Closes at 8:00 p.m. on August 1, 2017", "Active": 0, "Status": "Inactive", "Zip": "98321", "Phone": null, "Picture": "http:\/\/www.co.pierce.wa.us\/DocumentCenter\/View\/63276" }, "geometry": { "type": "Point", "coordinates": [ -122.02970709518318, 47.162611664940613 ] } }
]
}
